[{"_id":"92p0bJ5sdKnNk","name":"UPS Systems","lat":"37.48972","lng":"127.49056","address":"1233 Bunting Lane","city":"Yangp'yŏng"},
{"_id":"79s3hJsajsGqw","name":"JGroups","lat":35.1341835,"lng":-89.8655563,"address":"304 Clarendon Avenue","city":"Memphis"},
{"_id":"75j6xFBwNeIQD","name":"Electric Guitar","lat":52.5693104,"lng":13.3714743,"address":"75235 Randy Pass","city":"Berlin"},
{"_id":"56b1drMVxAX7G","name":"UV","lat":29.5917677,"lng":52.5836982,"address":"274 Dorton Drive","city":"Shiraz"},
{"_id":"63t1eFYnnOLcN","name":"IT Governance","lat":30.131843,"lng":109.934086,"address":"7 Forest Drive","city":"Shihuiyao"},
{"_id":"96i3cRtuBST6C","name":"University Teaching","lat":28.7612,"lng":112.360871,"address":"9887 Kropf Avenue","city":"Sanyantang"},
{"_id":"63t9q6ajoABzN","name":"Board of Directors","lat":-8.460409,"lng":122.6051351,"address":"093 Del Sol Terrace","city":"Talibura"},
{"_id":"10m0vmMYlZ1nX","name":"BMR","lat":36.806669,"lng":118.017938,"address":"39497 Pepper Wood Street","city":"Zhangdian"},
{"_id":"83c2sqlNkOlKo","name":"Oracle ERP","lat":"40.88472","lng":"20.09944","address":"9002 Burrows Drive","city":"Sult"},
{"_id":"38b9zbX9LkOaH","name":"CDL Class B","lat":50.5374117,"lng":36.6913146,"address":"3354 Maple Terrace","city":"Razumnoye"},
{"_id":"29z7lE8CaXHSn","name":"RPT","lat":-6.6958883,"lng":107.7073688,"address":"6 1st Lane","city":"Cimanglid"},
{"_id":"23u5i48LBxRvp","name":"AC/DC","lat":51.3854177,"lng":20.4867499,"address":"7 Warrior Road","city":"Gielniów"},
{"_id":"09v8q3FH9BMZr","name":"PCB Design","lat":16.1091703,"lng":120.0885626,"address":"9354 Mcbride Hill","city":"Pangascasan"},
{"_id":"21h0qbfO5oT0Q","name":"IATSE","lat":-7.0142083,"lng":108.4335393,"address":"9884 Randy Way","city":"Nusaherang"},
{"_id":"60d9z96qUmyV5","name":"PMP","lat":43.4598651,"lng":-3.8057968,"address":"556 Talmadge Parkway","city":"Santander"},
{"_id":"41j9g1OetNYN2","name":"Science Journalism","lat":34.363184,"lng":107.237743,"address":"36 Onsgard Street","city":"Baoji"},
{"_id":"14k3xW0qmrt5R","name":"Xbox 360","lat":"44.29897","lng":"-78.55989","address":"8 5th Trail","city":"Omemee"},
{"_id":"31v4tSqDgVyMW","name":"Fashion Design","lat":14.3705235,"lng":120.8168869,"address":"760 Johnson Drive","city":"Halayhay"},
{"_id":"07l7ipoeWFTBj","name":"Office Equipment","lat":-7.2133284,"lng":110.3934388,"address":"198 Fair Oaks Street","city":"Sidomukti"},
{"_id":"76c8aX2CK1NFW","name":"Epoxy","lat":34.295348,"lng":119.119278,"address":"95 Forest Dale Point","city":"Dougou"},
{"_id":"48k2xT3HzJ7aj","name":"Workers Compensation","lat":51.3614279,"lng":-0.193961,"address":"49666 Golf Course Street","city":"Sutton"},
{"_id":"60e1cOkwAh8Vt","name":"ODIN","lat":47.918302,"lng":106.915572,"address":"2678 Mesta Pass","city":"Bodĭ"},
{"_id":"10w4yCOROP86p","name":"IM","lat":-7.3590199,"lng":107.0362272,"address":"35336 South Alley","city":"Sukasirna"},
{"_id":"01i3kMdFnxmfI","name":"OTP","lat":37.1017088,"lng":70.5552362,"address":"8972 Kennedy Way","city":"Fayzabad"},
{"_id":"09t8dd2qE4mVc","name":"Vulnerability Scanning","lat":49.8458727,"lng":19.6201067,"address":"6527 Valley Edge Street","city":"Bachowice"},
{"_id":"88g8waOqi3bwQ","name":"TWIC Card","lat":12.333333,"lng":121.1500015,"address":"14142 Talisman Plaza","city":"Paclolo"},
{"_id":"43m9ijhxmj462","name":"Fraud Detection","lat":-7.4551089,"lng":109.2786926,"address":"27094 Starling Parkway","city":"Karangkedawung"},
{"_id":"89x0uXMF8ckPo","name":"Www","lat":-1.145463,"lng":136.0396342,"address":"53999 Atwood Place","city":"Insrom"},
{"_id":"95t3wEK3N81M4","name":"GSE","lat":32.229334,"lng":-110.8772009,"address":"0380 Barnett Court","city":"Tucson"},
{"_id":"78o6mp0BLJeRo","name":"Gmail","lat":52.4856992,"lng":13.3488258,"address":"462 Delladonna Park","city":"Berlin"},
{"_id":"36u6wj3bqzNol","name":"OEIC","lat":59.85299,"lng":30.245977,"address":"1 Iowa Way","city":"Smolenka"},
{"_id":"44q2umtOWw5ig","name":"IVDD","lat":"51.1632","lng":"41.151","address":"22032 Roxbury Terrace","city":"Yelan’-Kolenovskiy"},
{"_id":"30c4qOjsKr3rW","name":"Omega","lat":-9.3863122,"lng":-37.9926586,"address":"1321 4th Center","city":"Delmiro Gouveia"},
{"_id":"28w3g6gH7KU4W","name":"European Union Politics","lat":10.305562,"lng":123.897862,"address":"5 Towne Pass","city":"Tapas"},
{"_id":"88b6e1NxWPwLS","name":"CTR","lat":14.347522,"lng":120.9245309,"address":"84 Bartillon Alley","city":"Sabang"},
{"_id":"51r4gKLrggmia","name":"IAS 39","lat":23.365556,"lng":116.70345,"address":"27 Superior Hill","city":"Jinping"},
{"_id":"68i8gtsXDdHmA","name":"SCADA","lat":-7.1824754,"lng":108.0272646,"address":"8156 Washington Way","city":"Pangatikan"},
{"_id":"99d5yxcWy0Uv9","name":"Rig","lat":35.892152,"lng":14.5075482,"address":"21756 Loftsgordon Road","city":"Floriana"},
{"_id":"49y7e323lXfEk","name":"Rugby Union","lat":58.9015864,"lng":5.7123282,"address":"1 Lerdahl Hill","city":"Stavanger"},
{"_id":"94p6q0V5Ifmyd","name":"Digital Journalism","lat":15.444313,"lng":-61.444406,"address":"445 Anthes Parkway","city":"Salisbury"},
{"_id":"55s2vLXakBSCh","name":"NLB","lat":-4.1682452,"lng":13.5523679,"address":"8959 Buhler Avenue","city":"Madingou"},
{"_id":"96y5dVdG72hLn","name":"French","lat":55.9353544,"lng":37.4864125,"address":"602 Bayside Crossing","city":"Dolgoprudnyy"},
{"_id":"71y2z7FtYa9Fa","name":"Clerical Skills","lat":55.615632,"lng":37.4668955,"address":"04 Loeprich Court","city":"Mosrentgen"},
{"_id":"97x0wVpxYEEN2","name":"Human Capital","lat":-6.1756543,"lng":35.7926792,"address":"6479 Hooker Street","city":"Kisasa"},
{"_id":"94l8ypFaTrXOx","name":"Xen","lat":35.0695474,"lng":136.7835269,"address":"01 Schurz Place","city":"Kanie"},
{"_id":"20j6wRl7NnW5C","name":"Tourism","lat":26.11,"lng":-80.3,"address":"637 Messerschmidt Alley","city":"Fort Lauderdale"},
{"_id":"85s3g2DeRSp4c","name":"Network Administration","lat":34.355068,"lng":107.155344,"address":"2623 Stephen Pass","city":"Weibin"},
{"_id":"73u1lcXVTXD2k","name":"Hybrid Cloud","lat":-7.6492089,"lng":111.4395128,"address":"06 Norway Maple Terrace","city":"Bendo"},
{"_id":"72i8ryPujHErh","name":"Vacation Homes","lat":31.364902,"lng":108.249509,"address":"417 Schiller Place","city":"Aoqiao"},
{"_id":"24o2ivxWdFaWk","name":"Algebra","lat":22.863502,"lng":114.333767,"address":"8408 Bluestem Road","city":"Xinxu"}]