[
    {
        "_id": {
            "$oid": "5d2706e7fc13ae4029000032"
        },
        "name": "Trude Mongeot",
        "location": {
            "geo": {
                "lat": -9.5517,
                "lng": 124.3173
            },
            "city": "Fatufaun",
            "address": "067 Lukken Terrace"
        },
        "email": "tmongeot0@marketwatch.com",
        "phone": "886-605-4945"
    },
    {
        "_id": {
            "$oid": "5d2706e7fc13ae4029000033"
        },
        "name": "Derwin Hupe",
        "email": "dhupe1@meetup.com",
        "phone": "968-593-3274",
        "loc": {
            "geo": {
                "lat": -1.509435,
                "lng": 101.060699
            },
            "address": "7882 Sachs Plaza",
            "city": "Muaralabuh"
        }
    },
    {
        "_id": {
            "$oid": "5d2706e7fc13ae4029000034"
        },
        "name": "Clive Elie",
        "email": "celie2@bandcamp.com",
        "phone": "947-210-4179",
        "loc": {
            "geo": {
                "lat": 38.235241,
                "lng": 125.750504
            },
            "address": "70253 Del Mar Alley",
            "city": "Ayang-ni"
        }
    },
    {
        "_id": {
            "$oid": "5d2706e7fc13ae4029000035"
        },
        "name": "Kippar Alti",
        "email": "kalti3@360.cn",
        "phone": "409-947-9537",
        "loc": {
            "geo": {
                "lat": -28.4425713,
                "lng": -65.7655162
            },
            "address": "2 Anzinger Hill",
            "city": "San Fernando del Valle de Catamarca"
        }
    },
    {
        "_id": {
            "$oid": "5d2706e7fc13ae4029000036"
        },
        "name": "Bonnee Trinkwon",
        "email": "btrinkwon4@umn.edu",
        "phone": "624-413-8368",
        "loc": {
            "geo": {
                "lat": "46.9",
                "lng": "113.41667"
            },
            "address": "849 Golden Leaf Lane",
            "city": "Haylaastay"
        }
    },
    {
        "_id": {
            "$oid": "5d2706e7fc13ae4029000037"
        },
        "name": "Base Folliott",
        "email": "bfolliott5@jigsy.com",
        "phone": "587-535-1361",
        "loc": {
            "geo": {
                "lat": 62.5988609,
                "lng": 34.9332074
            },
            "address": "22 Sycamore Drive",
            "city": "Shun’ga"
        }
    },
    {
        "_id": {
            "$oid": "5d2706e7fc13ae4029000038"
        },
        "name": "Sherill Lethebridge",
        "email": "slethebridge6@craigslist.org",
        "phone": "836-373-7328",
        "loc": {
            "geo": {
                "lat": 53.6182497,
                "lng": 34.152126
            },
            "address": "126 Brickson Park Point",
            "city": "Star’"
        }
    },
    {
        "_id": {
            "$oid": "5d2706e7fc13ae4029000039"
        },
        "name": "Lu Bartoszek",
        "email": "lbartoszek7@boston.com",
        "phone": "730-314-0626",
        "loc": {
            "geo": {
                "lat": 49.7937399,
                "lng": 17.4421225
            },
            "address": "537 Acker Circle",
            "city": "Moravský Beroun"
        }
    },
    {
        "_id": {
            "$oid": "5d2706e7fc13ae402900003a"
        },
        "name": "Bartholemy Meagher",
        "email": "bmeagher8@indiegogo.com",
        "phone": "275-502-1719",
        "loc": {
            "geo": {
                "lat": "36.34931",
                "lng": "126.59772"
            },
            "address": "2 Nobel Place",
            "city": "Taisen-ri"
        }
    },
    {
        "_id": {
            "$oid": "5d2706e7fc13ae402900003b"
        },
        "name": "Dulci Nevill",
        "email": "dnevill9@i2i.jp",
        "phone": "939-527-0457",
        "loc": {
            "geo": {
                "lat": -11.2362892,
                "lng": -38.2322028
            },
            "address": "53 Bunker Hill Parkway",
            "city": "Itapicuru"
        }
    },
    {
        "_id": {
            "$oid": "5d2706e7fc13ae402900003c"
        },
        "name": "Toiboid Knotton",
        "email": "tknottona@hubpages.com",
        "phone": "741-232-5005",
        "loc": {
            "geo": {
                "lat": 49.7708764,
                "lng": 22.0252771
            },
            "address": "82668 Bartelt Way",
            "city": "Golcowa"
        }
    },
    {
        "_id": {
            "$oid": "5d2706e7fc13ae402900003d"
        },
        "name": "Wren De Cleyne",
        "email": "wdeb@gravatar.com",
        "phone": "407-803-4759",
        "loc": {
            "geo": {
                "lat": 36.304147,
                "lng": 139.978334
            },
            "address": "6547 Old Shore Circle",
            "city": "Shimodate"
        }
    },
    {
        "_id": {
            "$oid": "5d2706e7fc13ae402900003e"
        },
        "name": "Kenn Khilkov",
        "email": "kkhilkovc@wp.com",
        "phone": "870-155-1344",
        "loc": {
            "geo": {
                "lat": 49.116169,
                "lng": 6.1807997
            },
            "address": "626 Forest Center",
            "city": "Metz"
        }
    },
    {
        "_id": {
            "$oid": "5d2706e7fc13ae402900003f"
        },
        "name": "Camellia Hammor",
        "email": "chammord@baidu.com",
        "phone": "379-819-6075",
        "loc": {
            "geo": {
                "lat": 57.6734511,
                "lng": 46.6107277
            },
            "address": "68839 Arkansas Crossing",
            "city": "Shakhun’ya"
        }
    },
    {
        "_id": {
            "$oid": "5d2706e7fc13ae4029000040"
        },
        "name": "Frederick Filisov",
        "email": "ffilisove@hud.gov",
        "phone": "631-747-0682",
        "loc": {
            "geo": {
                "lat": 28.18018,
                "lng": 109.654991
            },
            "address": "66 Thierer Plaza",
            "city": "Sangongqiao"
        }
    },
    {
        "_id": {
            "$oid": "5d2706e7fc13ae4029000041"
        },
        "name": "Georgie Staynes",
        "email": "gstaynesf@wordpress.org",
        "phone": "627-257-2741",
        "loc": {
            "geo": {
                "lat": 62.107429,
                "lng": 129.517113
            },
            "address": "8869 8th Alley",
            "city": "Magan"
        }
    },
    {
        "_id": {
            "$oid": "5d2706e7fc13ae4029000042"
        },
        "name": "Woodrow Pringley",
        "email": "wpringleyg@tmall.com",
        "phone": "942-707-0898",
        "loc": {
            "geo": {
                "lat": -3.8277688,
                "lng": 119.7773461
            },
            "address": "5 Elgar Drive",
            "city": "Baranti"
        }
    },
    {
        "_id": {
            "$oid": "5d2706e7fc13ae4029000043"
        },
        "name": "Parnell Barrs",
        "email": "pbarrsh@wsj.com",
        "phone": "691-375-2173",
        "loc": {
            "geo": {
                "lat": 40.643647,
                "lng": 80.375053
            },
            "address": "0475 Bayside Park",
            "city": "Awat"
        }
    },
    {
        "_id": {
            "$oid": "5d2706e7fc13ae4029000044"
        },
        "name": "Kelly Duncklee",
        "email": "kdunckleei@sina.com.cn",
        "phone": "202-820-1510",
        "loc": {
            "geo": {
                "lat": 42.5420213,
                "lng": -91.1118075
            },
            "address": "40278 Pleasure Pass",
            "city": "Washington"
        }
    },
    {
        "_id": {
            "$oid": "5d2706e7fc13ae4029000045"
        },
        "name": "Raimondo Oaten",
        "email": "roatenj@ed.gov",
        "phone": "351-999-5816",
        "loc": {
            "geo": {
                "lat": 32.265208,
                "lng": 91.677053
            },
            "address": "9 Westerfield Junction",
            "city": "Pagnag"
        }
    },
    {
        "_id": {
            "$oid": "5d2706e7fc13ae4029000046"
        },
        "name": "Kip Marushak",
        "email": "kmarushakk@apple.com",
        "phone": "350-959-7086",
        "loc": {
            "geo": {
                "lat": 3.9671435,
                "lng": 103.40391
            },
            "address": "004 Dahle Terrace",
            "city": "Kuantan"
        }
    },
    {
        "_id": {
            "$oid": "5d2706e7fc13ae4029000047"
        },
        "name": "Eada Jeandet",
        "email": "ejeandetl@ucoz.ru",
        "phone": "680-769-6754",
        "loc": {
            "geo": {
                "lat": 56.7279731,
                "lng": 41.0643386
            },
            "address": "430 Aberg Hill",
            "city": "Novyye Gorki"
        }
    },
    {
        "_id": {
            "$oid": "5d2706e7fc13ae4029000048"
        },
        "name": "Leila Laterza",
        "email": "llaterzam@bizjournals.com",
        "phone": "568-279-4799",
        "loc": {
            "geo": {
                "lat": 41.6550179,
                "lng": -8.7184577
            },
            "address": "15823 Chive Road",
            "city": "Mujães"
        }
    },
    {
        "_id": {
            "$oid": "5d2706e7fc13ae4029000049"
        },
        "name": "Prudence Strevens",
        "email": "pstrevensn@booking.com",
        "phone": "286-837-7984",
        "loc": {
            "geo": {
                "lat": -4.8654138,
                "lng": -43.3619983
            },
            "address": "32565 Manitowish Drive",
            "city": "Caxias"
        }
    },
    {
        "_id": {
            "$oid": "5d2706e7fc13ae402900004a"
        },
        "name": "Latashia Meritt",
        "email": "lmeritto@umn.edu",
        "phone": "555-592-4503",
        "loc": {
            "geo": {
                "lat": "-6.9508",
                "lng": "114.0064"
            },
            "address": "002 Daystar Circle",
            "city": "Ares Tengah"
        }
    },
    {
        "_id": {
            "$oid": "5d2706e7fc13ae402900004b"
        },
        "name": "Zea Treleven",
        "email": "ztrelevenp@answers.com",
        "phone": "738-683-1780",
        "loc": {
            "geo": {
                "lat": 32.203257,
                "lng": 106.339791
            },
            "address": "58 Anzinger Place",
            "city": "Yongjiahe"
        }
    },
    {
        "_id": {
            "$oid": "5d2706e7fc13ae402900004c"
        },
        "name": "Jessa Trewhella",
        "email": "jtrewhellaq@blinklist.com",
        "phone": "520-777-2035",
        "loc": {
            "geo": {
                "lat": 48.550372,
                "lng": 24.7466678
            },
            "address": "8 Brickson Park Point",
            "city": "Lanchyn"
        }
    },
    {
        "_id": {
            "$oid": "5d2706e7fc13ae402900004d"
        },
        "name": "Ichabod Tomashov",
        "email": "itomashovr@sohu.com",
        "phone": "791-464-6560",
        "loc": {
            "geo": {
                "lat": 54.605563,
                "lng": 48.924236
            },
            "address": "1 Gulseth Park",
            "city": "Staraya Mayna"
        }
    },
    {
        "_id": {
            "$oid": "5d2706e7fc13ae402900004e"
        },
        "name": "Vanny Spacey",
        "email": "vspaceys@mit.edu",
        "phone": "757-204-4994",
        "loc": {
            "geo": {
                "lat": 32.901093,
                "lng": -6.7761686
            },
            "address": "9078 Melvin Road",
            "city": "Boujniba"
        }
    },
    {
        "_id": {
            "$oid": "5d2706e7fc13ae402900004f"
        },
        "name": "Tadio Peggrem",
        "email": "tpeggremt@163.com",
        "phone": "759-805-1127",
        "loc": {
            "geo": {
                "lat": 43.8313297,
                "lng": 17.503469
            },
            "address": "1700 Schiller Court",
            "city": "Rumboci"
        }
    },
    {
        "_id": {
            "$oid": "5d2706e7fc13ae4029000050"
        },
        "name": "Adela Chippindall",
        "email": "achippindallu@pagesperso-orange.fr",
        "phone": "928-846-1843",
        "loc": {
            "geo": {
                "lat": 55.931354,
                "lng": 38.3911151
            },
            "address": "2 Calypso Circle",
            "city": "Yamkino"
        }
    },
    {
        "_id": {
            "$oid": "5d2706e7fc13ae4029000051"
        },
        "name": "Helli Polycote",
        "email": "hpolycotev@cbsnews.com",
        "phone": "832-717-9602",
        "loc": {
            "geo": {
                "lat": 38.1086472,
                "lng": 140.8706157
            },
            "address": "2 Debs Place",
            "city": "Sakura"
        }
    },
    {
        "_id": {
            "$oid": "5d2706e7fc13ae4029000052"
        },
        "name": "Rozalie Vautre",
        "email": "rvautrew@slideshare.net",
        "phone": "601-537-3331",
        "loc": {
            "geo": {
                "lat": 42.9228102,
                "lng": 17.1657568
            },
            "address": "65 Ramsey Court",
            "city": "Podstrana"
        }
    },
    {
        "_id": {
            "$oid": "5d2706e7fc13ae4029000053"
        },
        "name": "Angie Nuscha",
        "email": "anuschax@ehow.com",
        "phone": "952-119-2321",
        "loc": {
            "geo": {
                "lat": 51.7256101,
                "lng": 38.9897424
            },
            "address": "268 Haas Way",
            "city": "Semiluki"
        }
    },
    {
        "_id": {
            "$oid": "5d2706e7fc13ae4029000054"
        },
        "name": "Serge Regina",
        "email": "sreginay@ibm.com",
        "phone": "581-402-0626",
        "loc": {
            "geo": {
                "lat": 9.201062,
                "lng": -73.5425659
            },
            "address": "422 Banding Alley",
            "city": "Curumaní"
        }
    },
    {
        "_id": {
            "$oid": "5d2706e7fc13ae4029000055"
        },
        "name": "Sonia Pyle",
        "email": "spylez@cbc.ca",
        "phone": "865-866-9095",
        "loc": {
            "geo": {
                "lat": 13.0742447,
                "lng": 101.0084698
            },
            "address": "7 Pankratz Drive",
            "city": "Ban Talat Bueng"
        }
    },
    {
        "_id": {
            "$oid": "5d2706e7fc13ae4029000056"
        },
        "name": "Renaud Attarge",
        "email": "rattarge10@blinklist.com",
        "phone": "408-567-9656",
        "loc": {
            "geo": {
                "lat": 59.9588359,
                "lng": 10.9167426
            },
            "address": "46968 Old Shore Parkway",
            "city": "Oslo"
        }
    },
    {
        "_id": {
            "$oid": "5d2706e7fc13ae4029000057"
        },
        "name": "Maddie Graver",
        "email": "mgraver11@ustream.tv",
        "phone": "853-150-2425",
        "loc": {
            "geo": {
                "lat": -17.8119748,
                "lng": -50.5981252
            },
            "address": "42 Kinsman Center",
            "city": "Santa Helena de Goiás"
        }
    },
    {
        "_id": {
            "$oid": "5d2706e7fc13ae4029000058"
        },
        "name": "Clarisse Costell",
        "email": "ccostell12@sbwire.com",
        "phone": "339-855-0429",
        "loc": {
            "geo": {
                "lat": 57.2528644,
                "lng": 16.4754832
            },
            "address": "9174 Starling Plaza",
            "city": "Oskarshamn"
        }
    },
    {
        "_id": {
            "$oid": "5d2706e7fc13ae4029000059"
        },
        "name": "Ad O'Glassane",
        "email": "aoglassane13@slashdot.org",
        "phone": "126-537-9887",
        "loc": {
            "geo": {
                "lat": 27.34763,
                "lng": 119.135302
            },
            "address": "933 Loftsgordon Street",
            "city": "Beidou"
        }
    },
    {
        "_id": {
            "$oid": "5d2706e7fc13ae402900005a"
        },
        "name": "De Mithun",
        "email": "dmithun14@flavors.me",
        "phone": "598-395-8653",
        "loc": {
            "geo": {
                "lat": -20.9868314,
                "lng": -42.0979633
            },
            "address": "94023 Fisk Avenue",
            "city": "Porciúncula"
        }
    },
    {
        "_id": {
            "$oid": "5d2706e7fc13ae402900005b"
        },
        "name": "Aldrich Biddlestone",
        "email": "abiddlestone15@angelfire.com",
        "phone": "864-300-1480",
        "loc": {
            "geo": {
                "lat": 34.292103,
                "lng": 107.531655
            },
            "address": "5038 Lighthouse Bay Junction",
            "city": "Diaowei"
        }
    },
    {
        "_id": {
            "$oid": "5d2706e7fc13ae402900005c"
        },
        "name": "Kearney Woodall",
        "email": "kwoodall16@shutterfly.com",
        "phone": "939-157-2233",
        "loc": {
            "geo": {
                "lat": 39.5421345,
                "lng": -118.5736924
            },
            "address": "02750 Darwin Street",
            "city": "Ponte"
        }
    },
    {
        "_id": {
            "$oid": "5d2706e7fc13ae402900005d"
        },
        "name": "Benjie Chasle",
        "email": "bchasle17@independent.co.uk",
        "phone": "336-637-2558",
        "loc": {
            "geo": {
                "lat": 24.414825,
                "lng": 102.665768
            },
            "address": "52953 Delaware Plaza",
            "city": "Anhua Daying"
        }
    },
    {
        "_id": {
            "$oid": "5d2706e7fc13ae402900005e"
        },
        "name": "Laurene Briztman",
        "email": "lbriztman18@vk.com",
        "phone": "502-440-5959",
        "loc": {
            "geo": {
                "lat": 35.490701,
                "lng": 112.851831
            },
            "address": "8 Southridge Drive",
            "city": "Jincheng"
        }
    },
    {
        "_id": {
            "$oid": "5d2706e7fc13ae402900005f"
        },
        "name": "Maison Edworthie",
        "email": "medworthie19@state.gov",
        "phone": "965-660-3756",
        "loc": {
            "geo": {
                "lat": -15.3075834,
                "lng": -68.2206477
            },
            "address": "60 Pond Place",
            "city": "Mapiri"
        }
    },
    {
        "_id": {
            "$oid": "5d2706e7fc13ae4029000060"
        },
        "name": "Anatollo Joblin",
        "email": "ajoblin1a@jiathis.com",
        "phone": "839-179-3235",
        "loc": {
            "geo": {
                "lat": 17.9835237,
                "lng": 100.051784
            },
            "address": "397 Carpenter Pass",
            "city": "Den Chai"
        }
    },
    {
        "_id": {
            "$oid": "5d2706e7fc13ae4029000061"
        },
        "name": "Stefania D'Aguanno",
        "email": "sdaguanno1b@nyu.edu",
        "phone": "878-664-8591",
        "loc": {
            "geo": {
                "lat": 23.113478,
                "lng": 113.417068
            },
            "address": "5712 Pankratz Center",
            "city": "Dongpu"
        }
    },
    {
        "_id": {
            "$oid": "5d2706e7fc13ae4029000062"
        },
        "name": "Cybil Larder",
        "email": "clarder1c@wordpress.com",
        "phone": "710-121-7823",
        "loc": {
            "geo": {
                "lat": -23.107801,
                "lng": 26.8321332
            },
            "address": "0 Redwing Terrace",
            "city": "Mahalapye"
        }
    },
    {
        "_id": {
            "$oid": "5d2706e7fc13ae4029000063"
        },
        "name": "Giustino Allridge",
        "email": "gallridge1d@smh.com.au",
        "phone": "747-910-1663",
        "loc": {
            "geo": {
                "lat": 40.7559095,
                "lng": -0.3371889
            },
            "address": "1092 Saint Paul Circle",
            "city": "Teruel"
        }
    }
]